[
    {
        "name": "Μασούτης",
        "city": "Μυτιλήνη",
        "address": "Βενιζελου 15 & Οδ.ελυτη",
        "location":{
            "type": "Point",
            "coordinates": [26.5537813, 39.1018547]
        }
    },
    {
        "name": "Μασούτης",
        "city": "Λημνος",
        "address": "Τριφωτο Μυρινας",
        "location":{
            "type": "Point",
            "coordinates": [25.0602114, 39.8732075]
        }
    },
    {
        "name": "Μασούτης",
        "city": "Μυτιλήνη",
        "address": "ΒΑΡΕΙΑ ΜΥΤΙΛΗΝΗΣ",
        "location":{
            "type": "Point",
            "coordinates": [26.5661496, 39.0800671]
        }
    },
    {
        "name": "Μασούτης",
        "city": "Μυτιλήνη",
        "address": "Ε.Ο. Μυτιληνης - Καλλονης",
        "location":{
            "type": "Point",
            "coordinates": [26.2108188, 39.2305104]
        }
    },
    {
        "name": "Μασούτης",
        "city": "Πλωμάρι",
        "address": "Πλατεια Πλωμαριου",
        "location":{
            "type": "Point",
            "coordinates": [26.3658652, 38.9752768]
        }
    },
    {
        "name": "Μασούτης",
        "city": "Μύρινα",
        "address": "Τριφωτο Μυρινας",
        "location":{
            "type": "Point",
            "coordinates": [25.0602114, 39.8732075]
        }
    },
    {
        "name": "Μασούτης",
        "city": "Χίος",
        "address": "Βολισσου Ιωαννη Καρρα Θεση Φορος - Χιος",
        "location":{
            "type": "Point",
            "coordinates": [26.1320084, 38.3837784]
        }
    },
    {
        "name": "Μασούτης",
        "city": "Χίος",
        "address": "Ιασωνος Καλαμποκα Θεση Αγρελος",
        "location":{
            "type": "Point",
            "coordinates": [26.1330034, 38.3640392]
        }
    },
    {
        "name": "Μασούτης",
        "city": "Άνδρος",
        "address": "ΑΓΙΟΣ ΣΠΥΡΙΔΩΝΑΣ",
        "location":{
            "type": "Point",
            "coordinates": [24.9184423, 37.8313692]
        }
    },
    {
        "name": "Μασούτης",
        "city": "Άνδρος",
        "address": "ΒΑΡΔΙΑ ΓΑΥΡΙΟΥ",
        "location":{
            "type": "Point",
            "coordinates": [24.7408053, 37.8815572]
        }
    },
    {
        "name": "Μασούτης",
        "city": "Άνδρος",
        "address": "Ε.Ο Γαύριο - Σύρος",
        "location":{
            "type": "Point",
            "coordinates": [24.9279513, 37.8341212]
        }
    }
]